

{
   "page_info": {
         "current_page": 2,
        "page_num": 8,
        "total_num": 12,
        "total_page": 2
    },
  "records" : [
    {
      "id": "9",
      "title": "责编:李四5",
      "state": "空闲",
      "stateType":"1",
      "Longitude": "116.327852",
      "Lantitude": "40.157031",
      "imgUrl":"/newsCommand/ccbn/images/photo1.jpg",
      "phone":"13556653432",
      "curTask":"进行中的任务标题5",
      "curSelect":"进行中的选题标题5"
    },{
      "id": "10",
      "title": "责编:李四6",
      "state": "忙碌",
      "stateType":"2",
      "Longitude": "116.328229",
      "Lantitude": "40.024922",
      "imgUrl":"/newsCommand/ccbn/images/photo1.jpg",
      "phone":"13556653432",
      "curTask":"进行中的任务标题6",
      "curSelect":"进行中的选题标题6"
    },{
      "id": "11",
      "title": "责编:李四7",
      "state": "空闲",
      "stateType":"1",
      "Longitude": "116.345163",
      "Lantitude": "39.597753",
      "imgUrl":"/newsCommand/ccbn/images/news1.jpg",
      "phone":"13556653432",
      "curTask":"进行中的任务标题7",
      "curSelect":"进行中的选题标题7"
    },{
      "id": "12",
      "title": "责编:李四8",
      "state": "离线",
      "stateType":"4",
      "Longitude": "116.413472",
      "Lantitude": "39.922411",
      "imgUrl":"/newsCommand/ccbn/images/photo1.jpg",
      "phone":"13556653432",
      "curTask":"进行中的任务标题8",
      "curSelect":"进行中的选题标题8"
    }
  ]

}
